City ID,City,Clouds,Country,Date,Humidity,Lat,Lng,Max Temp,Wind Speed
0,Atuona,39,PF,1659581876,81,-9.8,-139.0333,77.27,17.78
1,Ekimchan,64,RU,1659582065,57,53.0667,132.9667,74.89,1.3
2,Callaway,48,US,1659582066,81,30.153,-85.5699,81.0,4.99
3,Santa Lucía,20,ES,1659581975,83,27.9117,-15.5407,64.76,29.93
4,New Norfolk,4,AU,1659581890,71,-42.7826,147.0587,64.92,3.0
5,Bredasdorp,45,ZA,1659581932,91,-34.5322,20.0403,45.73,7.18
6,Yellowknife,20,CA,1659581869,39,62.456,-114.3525,63.12,9.22
7,Puerto Ayora,97,EC,1659581913,81,-0.7393,-90.3518,70.56,8.99
8,Rikitea,96,PF,1659581616,72,-23.1203,-134.9692,71.62,19.46
9,Murchison,6,NZ,1659582067,58,-41.8,172.3333,56.86,2.35
10,Vieques,30,PR,1659582068,82,18.425,-65.8329,82.11,14.2
11,Chokurdakh,100,RU,1659581676,61,70.6333,147.9167,48.2,14.74
12,Nerchinskiy Zavod,97,RU,1659582068,57,51.3088,119.61,80.78,9.8
13,Norman Wells,75,CA,1659581979,59,65.282,-126.8329,64.44,9.22
14,Nogliki,96,RU,1659581885,85,51.8333,143.1667,61.59,10.51
15,Kapaa,5,US,1659581881,69,22.0752,-159.319,81.48,4.0
16,Bilma,76,NE,1659581924,42,18.6853,12.9164,88.43,8.59
17,Santa Maria,100,BR,1659581985,100,-29.6842,-53.8069,61.9,3.44
18,Khatanga,33,RU,1659581904,50,71.9667,102.5,60.8,12.97
19,Udarnyy,48,RU,1659582070,78,54.3409,42.8611,63.5,4.74
20,Kyabram,69,AU,1659582070,77,-36.3167,145.05,62.87,8.93
21,Huarmey,26,PE,1659581936,87,-10.0681,-78.1522,61.97,12.66
22,Pacific Grove,52,US,1659582070,88,36.6177,-121.9166,71.2,5.99
23,Tasiilaq,100,GL,1659581883,71,65.6145,-37.6368,39.51,2.08
24,Snezhnogorsk,94,RU,1659582071,81,69.1933,33.2531,55.18,10.4
25,Mataura,29,NZ,1659581601,64,-46.1927,168.8643,57.47,8.1
26,Coswig,0,DE,1659582072,60,51.1333,13.5833,77.67,9.22
27,Butaritari,23,KI,1659581873,74,3.0707,172.7902,81.99,15.79
28,Valdivia,100,CL,1659582072,98,-39.8142,-73.2459,44.19,1.48
29,Cap Malheureux,100,MU,1659582073,65,-19.9842,57.6142,71.65,16.42
30,Busselton,97,AU,1659581895,65,-33.65,115.3333,54.37,14.85
31,Kaitangata,41,NZ,1659581953,63,-46.2817,169.8464,55.11,3.8
32,San Jose,0,US,1659582000,56,37.3394,-121.895,83.21,12.66
33,Lázaro Cárdenas,71,MX,1659582073,81,17.9583,-102.2,81.82,2.35
34,Jamestown,83,US,1659581835,84,42.097,-79.2353,72.95,2.53
35,Pangkalanbuun,90,ID,1659582074,75,-2.6833,111.6167,83.17,4.99
36,Port Keats,12,AU,1659582074,48,-14.25,129.55,85.32,8.16
37,Murdochville,64,CA,1659582075,67,48.9583,-65.5006,54.14,6.11
38,Vorontsovka,87,RU,1659582075,81,50.6132,40.3549,66.88,6.64
39,Grand Gaube,100,MU,1659582075,64,-20.0064,57.6608,68.4,16.73
40,Amalāpuram,100,IN,1659582076,71,16.5833,82.0167,85.1,3.29
41,Beringovskiy,100,RU,1659581605,83,63.05,179.3167,50.54,5.68
42,Punta Arenas,75,CL,1659581825,93,-53.15,-70.9167,37.51,11.5
43,Avarua,75,CK,1659581969,57,-21.2078,-159.775,77.05,14.97
44,Tuatapere,44,NZ,1659581963,79,-46.1333,167.6833,50.16,9.66
45,Abnūb,1,EG,1659582077,37,27.2696,31.1511,81.73,7.54
46,Ustka,87,PL,1659581833,62,54.5805,16.8619,68.65,11.41
47,Souillac,40,MU,1659582000,77,-20.5167,57.5167,68.38,8.05
48,Marsh Harbour,4,BS,1659582078,74,26.5412,-77.0636,82.6,15.3
49,Barrow,100,US,1659581901,86,71.2906,-156.7887,44.74,17.52
50,Raudeberg,100,NO,1659582078,64,61.9875,5.1352,50.67,6.87
51,Hobart,20,AU,1659581891,54,-42.8794,147.3294,65.26,8.05
52,Kuching,40,MY,1659582033,94,1.55,110.3333,79.02,1.14
53,Saint-Pierre,20,RE,1659581992,76,-21.3393,55.4781,65.88,6.91
54,Rocha,100,UY,1659581993,98,-34.4833,-54.3333,51.62,8.08
55,Khandyga,93,RU,1659582079,58,62.6667,135.6,76.55,1.88
56,Hithadhoo,100,MV,1659582000,68,-0.6,73.0833,81.7,13.49
57,Longyearbyen,69,SJ,1659582016,85,78.2186,15.6401,47.28,3.27
58,Stary Krym,0,UA,1659582080,77,45.0333,35.1,65.32,3.0
59,Utete,95,TZ,1659582080,83,-7.986,38.758,70.41,1.32
60,Chul'man,100,RU,1659582081,83,56.8479,124.9104,66.25,3.0
61,Thompson,75,CA,1659581896,58,55.7435,-97.8558,59.16,3.44
62,Bluff,14,NZ,1659581870,70,-46.6,168.3333,57.79,15.41
63,Ondarroa,59,ES,1659582082,94,43.3167,-2.4167,72.45,5.06
64,Egvekinot,63,RU,1659582082,66,66.3167,-179.1667,52.97,6.53
65,Ambo,59,PE,1659581961,88,-10.1308,-76.2047,59.83,3.47
66,Mar del Plata,100,AR,1659581879,83,-38.0023,-57.5575,49.08,9.22
67,Lompoc,100,US,1659581934,85,34.6391,-120.4579,77.14,8.05
68,Fortuna,0,US,1659581893,82,40.5982,-124.1573,65.08,9.22
69,Sabang,100,ID,1659582083,60,5.8933,95.3214,82.29,2.89
70,George Town,40,MY,1659581751,79,5.4112,100.3354,82.35,6.91
71,Vila Franca do Campo,37,PT,1659581940,94,37.7167,-25.4333,73.81,5.3
72,Māngrol,100,IN,1659582084,76,21.1167,70.1167,82.9,4.74
73,Impfondo,40,CG,1659582084,89,1.6381,18.0667,69.89,2.46
74,Marshall,0,US,1659581935,82,34.3834,-86.3333,79.39,3.44
75,Qeshm,23,IR,1659582085,77,26.9581,56.2719,89.47,6.06
76,San Cristobal,87,VE,1659582000,91,7.7669,-72.225,69.98,1.74
77,Hermanus,85,ZA,1659581872,83,-34.4187,19.2345,44.8,9.4
78,Río Gallegos,100,AR,1659581907,100,-51.6226,-69.2181,37.45,9.22
79,Hilo,100,US,1659581884,83,19.7297,-155.09,78.24,6.91
80,Dunedin,98,NZ,1659582037,59,-45.8742,170.5036,57.79,4.0
81,Laguna,0,US,1659581979,38,38.421,-121.4238,96.94,10.36
82,Isangel,75,VU,1659581917,79,-19.55,169.2667,84.31,2.3
83,Nouadhibou,15,MR,1659582086,88,20.931,-17.0347,70.45,11.1
84,Phan Thiet,100,VN,1659582086,65,10.9333,108.1,86.5,6.38
85,Albany,1,US,1659581884,67,42.6001,-73.9662,74.52,3.06
86,Faanui,17,PF,1659581889,75,-16.4833,-151.75,78.4,22.75
87,Vaini,75,TO,1659581893,89,-21.2,-175.2,80.76,10.36
88,Kamaishi,100,JP,1659581876,84,39.2667,141.8833,70.38,6.26
89,Kostelec nad Černými Lesy,10,CZ,1659582087,58,49.994,14.8592,67.12,4.21
90,Cape Town,75,ZA,1659581877,81,-33.9258,18.4232,55.81,10.36
91,Baruun-Urt,81,MN,1659582087,60,46.6806,113.2792,77.95,8.9
92,Sitka,98,US,1659581812,85,57.0531,-135.33,59.34,3.18
93,Nishihara,40,JP,1659581890,74,26.1842,127.7558,87.08,9.22
94,Vargashi,32,RU,1659582088,67,55.3556,65.8467,63.9,6.55
95,Barguzin,45,RU,1659582055,60,53.6167,109.6167,69.78,6.78
96,Batemans Bay,100,AU,1659581822,82,-35.7167,150.1833,61.11,9.01
97,Katherine,13,AU,1659582089,40,-14.4667,132.2667,89.92,3.44
98,Husavik,100,IS,1659581972,93,66.0449,-17.3389,42.42,17.94
99,Nikolskoye,12,RU,1659581872,91,59.7035,30.7861,62.8,5.03
100,Syumsi,100,RU,1659582089,78,57.1111,51.6149,65.46,2.33
101,Tambulig,99,PH,1659582090,77,8.0702,123.5348,83.8,2.51
102,Esperance,96,AU,1659582037,69,-33.8667,121.9,53.44,32.17
103,Port Alfred,31,ZA,1659581944,90,-33.5906,26.891,58.17,1.01
104,Vertou,0,FR,1659582090,78,47.1687,-1.4693,69.78,8.05
105,‘Āhuimanu,28,US,1659581962,75,21.4447,-157.8378,81.79,5.01
106,Praia,20,CV,1659582091,88,14.9215,-23.5087,77.54,5.75
107,Vallenar,2,CL,1659582091,72,-28.5708,-70.7581,53.44,3.38
108,Carnarvon,95,AU,1659581866,53,-24.8667,113.6333,66.65,14.29
109,Ushuaia,75,AR,1659581865,87,-54.8,-68.3,35.26,2.3
110,Saint-Joseph,28,RE,1659581966,81,-21.3667,55.6167,64.78,9.93
111,Kenai,100,US,1659582092,83,60.5544,-151.2583,71.02,7.9
112,Airai,75,TL,1659581879,37,-8.9266,125.4092,75.58,3.18
113,Port Elizabeth,0,ZA,1659581968,94,-33.918,25.5701,57.49,13.8
114,Severo-Kuril'sk,76,RU,1659581928,81,50.6789,156.125,56.35,7.16
115,Nyagan,9,RU,1659582092,48,62.1406,65.3936,69.85,5.5
116,Birao,100,CF,1659582093,98,10.2849,22.7882,69.03,5.08
117,Bathsheba,100,BB,1659582093,89,13.2167,-59.5167,82.06,16.91
118,Králíky,53,CZ,1659582094,77,50.0838,16.7605,65.35,1.88
119,Gijang,0,KR,1659582094,63,35.2442,129.2139,88.3,8.68
120,Samarai,13,PG,1659581910,81,-10.6167,150.6667,81.18,12.71
121,Sebastian,3,US,1659582094,59,35.1668,-94.2669,90.16,3.58
122,Fort Morgan,69,US,1659582054,30,40.2503,-103.8,81.95,9.15
123,Jiaozuo,0,CN,1659582095,57,35.2397,113.2331,92.89,5.37
124,Moose Factory,100,CA,1659581952,82,51.2585,-80.6094,59.0,10.36
125,Portland,0,US,1659582032,58,45.5234,-122.6762,77.99,8.01
126,Tambacounda,100,SN,1659582095,96,13.7539,-13.7586,74.14,6.31
127,Aromashevo,26,RU,1659582096,66,56.8602,68.6375,64.38,4.03
128,Castro,7,BR,1659581922,69,-24.7911,-50.0119,57.92,4.21
129,Il’inskiy,0,RU,1659582096,82,55.619,38.1182,63.3,4.47
130,Bernburg,32,DE,1659582097,45,51.8,11.7333,67.46,2.59
131,Chui,100,UY,1659581873,99,-33.6971,-53.4616,56.57,8.3
132,Kumluca,0,TR,1659582097,51,36.3703,30.2869,82.63,3.42
133,Caranavi,20,BO,1659582097,97,-15.8167,-67.55,62.1,3.02
134,Millinocket,27,US,1659582098,88,45.6573,-68.7098,64.42,4.27
135,Doha,73,QA,1659581829,49,25.2867,51.5333,96.78,5.75
136,Melfi,0,IT,1659582098,64,40.9965,15.6514,67.71,3.24
137,Koło,79,PL,1659582099,71,52.2002,18.6387,64.78,6.85
138,Vacha,93,RU,1659582099,79,55.8008,42.7706,64.54,2.62
139,Lodja,4,CD,1659581969,73,-3.4833,23.4333,69.93,0.34
140,Saint George,39,US,1659581827,37,37.1041,-113.5841,88.92,1.23
141,Puerto Madryn,58,AR,1659582100,55,-42.7692,-65.0385,45.9,10.4
142,Mīnāb,15,IR,1659582100,60,27.1467,57.0801,91.24,0.87
143,Cherskiy,100,RU,1659581965,85,68.75,161.3,43.93,10.49
144,Bethel,1,US,1659581880,84,41.3712,-73.414,75.76,2.55
145,Huesca,0,ES,1659582100,65,42.1362,-0.4087,77.11,4.61
146,Freeport,0,US,1659582101,79,40.6576,-73.5832,79.02,12.66
147,Chowchilla,0,US,1659582101,33,37.123,-120.2602,95.85,8.05
148,Hong Kong,100,HK,1659581920,91,22.2855,114.1577,79.25,5.99
149,Sittwe,81,MM,1659581882,77,20.15,92.9,84.9,13.27
150,Pakruojis,87,LT,1659582102,82,55.9667,23.8667,59.79,7.02
151,Saint Anthony,20,US,1659582102,66,45.0205,-93.218,73.15,11.5
152,Katsuura,100,JP,1659582085,79,35.1333,140.3,80.92,14.47
153,Ilulissat,100,GL,1659581983,71,69.2167,-51.1,45.54,6.31
154,Leningradskiy,100,RU,1659582103,93,69.3833,178.4167,40.96,4.88
155,Dikson,95,RU,1659581916,95,73.5069,80.5464,45.54,8.57
156,Falmouth,20,GB,1659582103,94,50.1544,-5.0711,63.5,3.44
157,Ancud,100,CL,1659581941,72,-41.8697,-73.8203,41.23,6.6
158,Tiksi,93,RU,1659581903,79,71.6872,128.8694,43.56,2.84
159,La Ronge,100,CA,1659582019,60,55.1001,-105.2842,56.75,3.6
160,Bud,51,US,1659581977,82,39.447,-86.1758,79.47,6.6
161,Foki,5,RU,1659582104,70,56.693,54.3499,63.97,3.42
162,Lagoa,22,PT,1659581926,89,39.05,-27.9833,74.01,4.12
163,Maniitsoq,100,GL,1659582105,93,65.4167,-52.9,45.86,11.95
164,Shimoda,81,JP,1659581912,86,34.6667,138.95,79.16,7.18
165,Lebu,90,CL,1659581903,89,-37.6167,-73.65,48.22,10.16
166,Clyde River,100,CA,1659581947,100,70.4692,-68.5914,39.43,11.5
167,Hasaki,100,JP,1659581900,78,35.7333,140.8333,79.29,12.24
168,Alice Springs,100,AU,1659582106,32,-23.7,133.8833,69.35,9.22
169,Langenhagen,0,DE,1659582106,88,52.45,9.75,70.41,0.0
170,Evensk,100,RU,1659581991,96,61.95,159.2333,53.37,9.1
171,Rome,0,US,1659582107,78,43.2128,-75.4557,76.87,5.75
172,Cornwall,97,CA,1659582107,62,45.0181,-74.7281,76.24,4.76
173,Talnakh,93,RU,1659582107,44,69.4865,88.3972,63.21,3.83
174,Xichang,67,CN,1659582107,76,27.8964,102.2634,75.51,2.89
175,Sinnamary,33,GF,1659582108,87,5.3833,-52.95,77.43,8.88
176,Port Lincoln,48,AU,1659581821,81,-34.7333,135.8667,55.96,32.82
177,Cabo San Lucas,5,MX,1659581912,69,22.8909,-109.9124,86.61,12.06
178,Ostrovnoy,100,RU,1659582108,82,68.0531,39.5131,54.66,16.37
179,Narsaq,100,GL,1659582109,99,60.9167,-46.05,50.22,5.75
180,Quatre Cocos,100,MU,1659582109,64,-20.2078,57.7625,68.11,14.07
181,Shaoxing,0,CN,1659582109,40,30.011,120.5715,94.95,7.94
182,Dukat,97,RU,1659582110,60,62.55,155.55,67.77,3.2
183,Cururupu,8,BR,1659582110,90,-1.8283,-44.8683,74.53,3.91
184,Kysyl-Syr,20,RU,1659582110,46,63.8986,122.7617,67.15,8.55
185,Kyenjojo,20,UG,1659582111,94,0.6328,30.6214,60.49,2.66
186,Arraial do Cabo,0,BR,1659581934,88,-22.9661,-42.0278,64.26,3.44
187,Mount Isa,0,AU,1659582111,31,-20.7333,139.5,91.17,19.57
188,East London,97,ZA,1659581694,60,-33.0153,27.9116,68.59,7.36
189,Moerai,62,PF,1659582112,68,-22.4333,-151.3333,71.92,23.96
190,Chifeng,79,CN,1659582112,44,42.2683,118.9636,91.56,11.54
191,Krasnosel'kup,7,RU,1659581959,48,65.7,82.4667,62.91,3.85
192,Saskylakh,23,RU,1659581878,50,71.9167,114.0833,55.83,14.12
193,Cidreira,100,BR,1659581912,96,-30.1811,-50.2056,61.66,6.73
194,Baykit,100,RU,1659581956,84,61.67,96.37,50.65,4.68
195,Hearst,72,CA,1659582113,97,49.6835,-83.6665,53.49,4.52
196,Iqaluit,75,CA,1659581961,71,63.7506,-68.5145,47.93,16.11
197,Bolu Province,79,TR,1659581867,81,40.6667,31.5833,63.05,3.13
198,Unecha,94,RU,1659582114,93,52.8459,32.6739,61.68,8.84
199,Bengkulu,79,ID,1659581928,78,-3.8004,102.2655,80.42,4.09
200,Port-Gentil,100,GA,1659582114,85,-0.7193,8.7815,73.04,13.76
201,Alta,100,NO,1659582115,80,69.9689,23.2717,58.26,54.0
202,Pevek,100,RU,1659581905,96,69.7008,170.3133,34.97,11.74
203,Ikalamavony,50,MG,1659582115,82,-21.15,46.5833,59.02,5.35
204,Konakovo,99,RU,1659582115,78,56.7,36.7667,65.77,3.27
205,Ambon City,40,ID,1659582116,83,-3.6954,128.1814,82.54,8.05
206,Namatanai,98,PG,1659581914,71,-3.6667,152.4333,84.24,11.5
207,Wendo,93,ET,1659582116,89,6.6,38.4167,57.87,1.86
208,Ponta do Sol,8,PT,1659582021,78,32.6667,-17.1,71.01,7.47
209,San Quintín,72,MX,1659582117,84,30.4833,-115.95,70.27,12.66
210,Lebyazh'ye,3,RU,1659582117,68,55.2689,66.4947,63.75,6.53
211,Makakilo City,46,US,1659581935,65,21.3469,-158.0858,80.62,9.6
212,São Filipe,88,CV,1659582001,86,14.8961,-24.4956,76.84,2.28
213,Bambous Virieux,40,MU,1659581952,77,-20.3428,57.7575,68.25,8.05
214,Coyhaique,75,CL,1659581986,75,-45.5752,-72.0662,39.15,3.44
215,Galveston,100,US,1659582118,80,29.3669,-94.9669,86.05,4.0
216,Tezu,100,IN,1659582118,88,27.9167,96.1667,81.59,0.72
217,Uberaba,61,BR,1659582029,42,-19.7483,-47.9319,69.1,10.83
218,Abhā,100,SA,1659582119,67,18.2164,42.5053,64.94,4.63
219,Lavrentiya,61,RU,1659581817,79,65.5833,-171.0,49.73,7.09
220,Althofen,0,AT,1659582119,86,46.8818,14.4676,59.56,2.21
221,Richards Bay,13,ZA,1659581743,78,-28.783,32.0377,63.3,13.38
222,Calabozo,100,VE,1659582120,95,8.9242,-67.4293,73.85,2.3
223,Salalah,100,OM,1659581868,96,17.0151,54.0924,76.77,5.1
224,Hobyo,97,SO,1659581915,82,5.3505,48.5268,75.6,24.02
225,Conakry,100,GN,1659582120,87,9.538,-13.6773,76.68,8.46
226,Saldanha,97,ZA,1659581922,68,-33.0117,17.9442,50.05,8.01
227,Kargopol',63,RU,1659582121,81,61.5071,38.9456,59.56,2.75
228,Russell,12,US,1659582016,65,32.3502,-85.1999,79.02,2.35
229,Lorengau,100,PG,1659582025,74,-2.0226,147.2712,83.52,12.37
230,Upernavik,12,GL,1659581820,80,72.7868,-56.1549,41.2,10.04
231,Progreso,13,MX,1659582121,86,21.2833,-89.6667,79.32,9.44
232,Chulumani,80,BO,1659582122,89,-16.4096,-67.5263,63.73,0.56
233,Codrington,0,AU,1659582122,61,-38.2667,141.9667,59.54,19.37
234,Vao,43,NC,1659581973,82,-22.6667,167.4833,71.73,13.53
235,Kovdor,78,RU,1659582123,92,67.5662,30.4758,54.55,7.94
236,Estelle,100,US,1659582123,79,29.8458,-90.1067,81.0,4.99
237,Coahuayana Viejo,89,MX,1659582051,87,18.7333,-103.6833,79.3,1.81
238,Anacortes,0,US,1659582066,81,48.5126,-122.6127,68.32,6.91
239,Gizo Government Station,6,SB,1659582124,64,-8.103,156.8419,85.24,4.0
240,Velyka Mykhaylivka,8,UA,1659582124,92,47.0794,29.8514,63.48,7.14
241,Cañon City,100,US,1659582124,53,38.441,-105.2424,77.16,10.36
242,Shevchenkove,34,UA,1659582125,96,49.6959,37.1735,63.61,7.72
243,Omsukchan,90,RU,1659581832,57,62.5333,155.8,69.31,3.71
244,Douglas,0,US,1659581950,65,41.3,-96.167,83.75,6.91
245,Nemuro,100,JP,1659582126,88,43.3236,145.575,60.28,10.47
246,Abonnema,35,NG,1659582126,90,4.7084,6.7931,72.86,3.78
247,Provideniya,75,RU,1659581747,100,64.3833,-173.3,44.71,11.18
248,Morros,42,BR,1659582127,37,-9.4467,-46.3003,75.65,1.83
249,Cubará,98,CO,1659582127,87,7.0008,-72.1085,69.96,3.94
250,Sun City West,0,US,1659582127,28,33.662,-112.3413,97.61,11.5
251,Cooma,100,AU,1659582128,91,-36.2333,149.1333,53.85,13.78
252,Brora,100,GB,1659582128,89,58.0099,-3.8518,53.89,4.65
253,Mana,61,GF,1659582128,89,5.6592,-53.7767,77.14,8.16
254,Sørland,91,NO,1659582129,89,67.667,12.6934,55.26,20.04
255,Hamilton,19,US,1659581904,81,39.1834,-84.5333,82.24,4.92
256,Hirara,40,JP,1659581925,70,24.8,125.2833,89.87,8.05
257,Yar-Sale,21,RU,1659581976,50,66.8333,70.8333,67.64,10.85
258,Natal,11,BR,1659582085,91,-5.795,-35.2094,73.67,5.01
259,Mehamn,100,NO,1659581866,83,71.0357,27.8492,55.76,8.01
260,Kedgwick,45,CA,1659582130,79,47.6446,-67.3434,57.81,4.7
261,Mildura,40,AU,1659582130,32,-34.2,142.15,69.76,17.27
262,Wewak,92,PG,1659582131,74,-3.5534,143.6268,83.91,9.01
263,Tambopata,91,PE,1659582131,75,-12.7333,-69.1833,76.08,2.37
264,Gornyak,91,RU,1659582131,42,50.9942,81.4661,67.89,15.39
265,Nha Trang,100,VN,1659581957,75,12.25,109.1833,87.8,4.76
266,Osypenko,3,UA,1659582132,77,46.9136,36.8253,72.07,6.31
267,Luganville,33,VU,1659582132,77,-15.5333,167.1667,82.0,6.91
268,Marystown,58,CA,1659582133,100,47.1666,-55.1483,65.86,1.01
269,Urucará,96,BR,1659582133,93,-2.5364,-57.76,73.99,2.33
270,Mossamedes,2,AO,1659581960,85,-15.1961,12.1522,59.02,5.44
271,Ulladulla,100,AU,1659582133,76,-35.35,150.4667,64.49,11.63
272,Gamboma,57,CG,1659582134,61,-1.8764,15.8644,75.78,2.28
273,Orlik,84,RU,1659582134,64,52.5178,99.825,62.91,1.66
274,Molchanovo,67,RU,1659582135,56,57.5817,83.7692,61.86,7.07
275,Shiojiri,100,JP,1659582135,72,36.1,137.9667,82.94,2.39
276,Ţahţā,4,EG,1659582136,33,26.7693,31.5021,82.69,7.49
277,Lüderitz,0,NA,1659581885,93,-26.6481,15.1594,52.7,9.86
278,Tanout,71,NE,1659582136,75,14.9709,8.8879,76.84,12.55
279,Karla,0,EE,1659582136,76,59.3723,24.9275,60.57,6.91
280,Salinópolis,9,BR,1659581865,84,-0.6136,-47.3561,78.17,10.25
281,Touros,31,BR,1659582006,90,-5.1989,-35.4608,74.17,5.17
282,Galle,100,LK,1659582137,80,6.0367,80.217,78.46,20.27
283,Haines Junction,57,CA,1659582053,52,60.7522,-137.5108,64.72,2.84
284,Tuktoyaktuk,20,CA,1659581870,82,69.4541,-133.0374,53.6,6.91
285,Saint-Augustin,52,CA,1659582008,83,51.226,-58.6502,57.9,13.2
286,Kununurra,10,AU,1659581918,33,-15.7667,128.7333,89.58,10.36
287,Guerrero Negro,4,MX,1659581911,83,27.9769,-114.0611,71.06,16.96
288,Soyo,31,AO,1659582138,88,-6.1349,12.3689,67.17,7.14
289,Klaksvík,95,FO,1659581746,82,62.2266,-6.589,49.12,11.12
290,San Julián,100,MX,1659582139,83,21.0167,-102.1667,59.04,0.94
291,Morehead,75,US,1659582139,92,37.2711,-87.1764,79.86,0.0
292,Freetown,100,SL,1659582139,89,8.484,-13.2299,75.34,7.56
293,Port Townsend,100,US,1659582140,75,48.117,-122.7605,67.68,10.0
294,Paulo Ramos,38,BR,1659582140,86,-4.2167,-45.1833,72.9,3.78
295,Waterloo,100,CA,1659582039,99,43.4668,-80.5164,68.74,1.99
296,San Patricio,2,US,1659581906,75,28.017,-97.5169,85.89,18.03
297,Toora-Khem,89,RU,1659581984,42,52.4675,96.11,64.71,3.0
298,Grand Forks,20,US,1659582141,77,47.9417,-97.4337,62.78,0.0
299,Kalmunai,100,LK,1659581739,75,7.4167,81.8167,78.82,5.88
300,Turan,0,VN,1659582108,52,16.0678,108.2208,93.18,2.3
301,Te Anau,100,NZ,1659582141,94,-45.4167,167.7167,44.31,7.92
302,Geraldton,46,AU,1659582029,67,-28.7667,114.6,63.01,17.27
303,Ribeira Grande,26,PT,1659581932,88,38.5167,-28.7,75.25,4.52
304,Jinxiang,56,CN,1659582142,76,27.4327,120.6062,85.64,5.26
305,Kirakira,12,SB,1659581964,69,-10.4544,161.9205,84.85,10.69
306,Ponta Delgada,40,PT,1659581959,94,37.7333,-25.6667,74.12,5.75
307,Bugama,33,NG,1659582142,90,4.7341,6.8635,72.88,3.69
308,Constitución,1,CL,1659581894,88,-35.3333,-72.4167,46.29,5.97
309,Miranda,84,CO,1659582016,93,3.2499,-76.2281,69.93,4.21
310,Imbituba,10,BR,1659582126,88,-28.24,-48.6703,68.09,23.0
311,Vestmanna,100,FO,1659582070,87,62.1564,-7.1664,47.32,9.22
312,Fort Nelson,99,CA,1659582046,97,58.8053,-122.7002,52.47,6.42
313,Torbay,20,CA,1659581896,91,47.6666,-52.7314,68.88,14.97
314,Yangi Marg`ilon,11,UZ,1659581972,33,40.4272,71.7189,81.39,4.16
315,San Ramon,0,US,1659581929,66,37.7799,-121.978,83.37,5.01
316,Okhotsk,100,RU,1659582144,84,59.3833,143.3,58.86,4.52
317,Kulhudhuffushi,100,MV,1659581909,80,6.6221,73.07,79.84,23.49
318,Senekal,65,ZA,1659582144,81,-28.3197,27.6208,49.48,5.1
319,Kahului,33,US,1659582145,84,20.8947,-156.47,80.96,7.0
320,Rūdbār,0,AF,1659582145,23,30.15,62.6,86.49,13.58
321,Mahébourg,40,MU,1659581939,77,-20.4081,57.7,68.29,8.05
322,Montepuez,7,MZ,1659581956,97,-13.1256,38.9997,59.92,3.62
323,Mariehamn,0,AX,1659581891,94,60.0973,19.9348,64.26,6.91
324,Ilebo,57,CD,1659582146,89,-4.3167,20.5833,69.24,2.15
325,Ous,43,RU,1659582146,58,60.9058,61.5186,66.24,3.69
326,Krylovskaya,76,RU,1659582147,76,46.3194,39.9711,72.64,4.74
327,Oistins,100,BB,1659582147,81,13.0667,-59.5333,81.52,17.49
328,Hammerfest,40,NO,1659582146,72,70.6634,23.6821,61.25,6.91
329,Kuala Pilah,100,MY,1659582147,72,2.7389,102.2487,82.24,1.83
330,Henties Bay,99,NA,1659581820,95,-22.116,14.2845,53.33,5.55
331,Primo Tapia,52,MX,1659582148,72,32.22,-116.9172,72.95,8.28
332,Pisco,75,PE,1659581929,82,-13.7,-76.2167,60.85,3.44
333,Palmer,0,US,1659582125,77,42.1584,-72.3287,74.75,8.05
334,Pitimbu,62,BR,1659582148,85,-7.4706,-34.8086,75.97,8.97
335,Kiunga,96,PG,1659582149,79,-6.1219,141.2906,82.13,2.33
336,Dingle,100,PH,1659582149,77,10.9995,122.6711,83.75,3.4
337,Wang Saphung,100,TH,1659582150,71,17.301,101.7685,83.95,2.15
338,Vila Velha,75,BR,1659581902,92,-20.3297,-40.2925,73.35,4.61
339,Saint Paul Harbor,48,US,1659581868,68,57.79,-152.4072,60.28,2.82
340,Tilichiki,89,RU,1659582106,67,60.4667,166.1,59.02,13.8
341,Nara,96,JP,1659582150,38,34.6851,135.8049,94.96,11.39
342,Wilkie,100,CA,1659582151,83,52.4168,-108.7014,61.9,12.46
343,Rundu,0,NA,1659582151,55,-17.9333,19.7667,58.05,2.28
344,Skodje,100,NO,1659582151,94,62.5021,6.7034,58.05,4.12
345,Jiaocheng,100,CN,1659582152,90,24.6774,116.1389,77.94,4.68
346,Bandundu Province,0,CD,1659582152,61,-3.3167,17.3667,76.24,3.18
347,Panara,100,IN,1659582152,79,22.0667,78.55,78.08,1.99
348,Kondinskoye,69,RU,1659582153,54,59.6481,67.41,67.53,3.8
349,Shenjiamen,0,CN,1659582153,79,29.9576,122.298,85.32,15.82
350,Pimentel,49,PE,1659581810,87,-6.8367,-79.9342,62.33,13.94
351,Tonantins,90,BR,1659582154,98,-2.8731,-67.8022,72.61,2.84
352,Vung Tau,100,VN,1659582020,76,10.346,107.0843,82.71,9.55
353,Hailey,0,US,1659582154,27,43.5196,-114.3153,78.66,9.22
354,Mandalgovi,0,MN,1659582155,49,45.7625,106.2708,70.79,15.5
355,Asău,10,RO,1659582109,94,46.4333,26.4,62.96,4.65
356,Nome,6,US,1659581969,83,64.5011,-165.4064,60.17,9.71
357,Sokoni,7,TZ,1659582155,77,-6.4333,39.55,74.53,14.07
358,Najrān,100,SA,1659582155,60,17.4924,44.1277,77.74,3.58
359,Gmina Świecie,66,PL,1659581944,70,53.4095,18.4474,65.8,5.64
360,Adrar,2,MR,1659581974,31,20.5022,-10.0711,91.96,14.85
361,Aklavik,99,CA,1659582116,49,68.2191,-135.0107,68.27,4.09
362,Pervoavgustovskiy,93,RU,1659582156,87,52.2264,35.0552,60.51,9.24
363,Kushikino,82,JP,1659582156,69,31.7167,130.2667,89.08,6.15
364,Chapais,99,CA,1659581908,93,49.7834,-74.8492,62.38,9.22
365,Portalegre,0,PT,1659582157,76,39.2938,-7.4312,62.08,2.39
366,Hakkâri Province,0,TR,1659582157,66,37.5833,44.1667,49.78,0.0
367,Daru,19,PG,1659581920,88,-9.0763,143.2092,80.15,16.49
368,Tessalit,9,ML,1659582110,43,20.1986,1.0114,84.58,10.85
369,Faya,100,SA,1659582158,69,18.3851,42.4509,61.32,3.71
370,Shache,100,CN,1659582158,50,38.4167,77.2406,72.72,1.25
371,Belmonte,1,BR,1659581930,75,-15.8631,-38.8828,69.13,4.56
372,Svetlaya,100,RU,1659582159,88,46.5389,138.3297,69.44,4.61
373,Mount Gambier,26,AU,1659582088,59,-37.8333,140.7667,60.71,17.27
374,Gbarnga,100,LR,1659582159,99,6.9956,-9.4722,70.45,1.9
375,Hauterive,4,FR,1659582160,46,46.0901,3.4459,74.16,5.01
376,Lingao,96,CN,1659582160,68,19.9103,109.6859,87.44,7.7
377,Skellefteå,100,SE,1659582160,100,64.7507,20.9528,64.0,6.91
378,Along,99,IN,1659582161,85,28.1667,94.7667,82.38,0.49
379,Lambari,0,BR,1659582161,61,-21.9756,-45.3503,57.94,3.36
380,Saint-Philippe,55,RE,1659581931,83,-21.3585,55.7679,65.79,9.71
381,Pemangkat,100,ID,1659582161,86,1.1667,108.9667,78.08,3.71
382,Harper,100,LR,1659582092,83,4.375,-7.7169,74.14,9.26
383,Olafsvik,24,IS,1659582031,75,64.8945,-23.7142,46.11,9.44
384,Sokolo,100,ML,1659582162,78,14.7328,-6.1219,77.68,8.08
385,Srednekolymsk,100,RU,1659581901,71,67.45,153.6833,54.25,6.89
386,Plouzané,20,FR,1659582162,97,48.3833,-4.6167,59.32,4.61
387,Bonavista,14,CA,1659582163,98,48.6499,-53.1147,60.89,5.66
388,Kruisfontein,94,ZA,1659582014,91,-34.0033,24.7314,55.98,7.11
389,Bousso,77,TD,1659582163,81,10.4795,16.7117,72.43,4.47
390,Enid,0,US,1659582163,45,36.3956,-97.8784,92.3,9.22
391,Okato,99,NZ,1659582164,72,-39.2,173.8833,54.68,4.03
392,Nanortalik,100,GL,1659581874,96,60.1432,-45.2371,48.36,21.81
393,Kedrovyy,97,RU,1659581988,76,56.1667,91.8167,55.87,7.25
394,Eureka,26,US,1659581994,82,40.8021,-124.1637,65.35,5.99
395,Itoman,40,JP,1659582164,74,26.1247,127.6694,87.82,9.22
396,Hazorasp,0,UZ,1659582165,37,41.3194,61.0742,79.09,7.61
397,Bergama,0,TR,1659582165,84,39.1207,27.1805,70.07,11.65
398,Kalengwa,0,ZM,1659582166,61,-13.4659,25.0027,56.62,7.14
399,Amapá,97,BR,1659582006,99,1.0,-52.0,70.3,2.42
400,San Luis,97,AR,1659581888,67,-33.295,-66.3356,51.24,8.08
401,Coquimbo,0,CL,1659581955,93,-29.9533,-71.3436,49.73,5.75
402,Jijiang,8,CN,1659582166,55,29.2906,106.2542,98.49,4.79
403,Gamba,97,GA,1659582126,83,-2.65,10.0,70.39,7.05
404,Yumen,0,CN,1659582167,24,40.2833,97.2,85.66,20.92
405,Sakakah,1,SA,1659582167,26,29.9697,40.2064,93.16,5.3
406,Labuhan,43,ID,1659581987,66,-6.8844,112.2051,84.02,1.23
407,Wajima,99,JP,1659582167,76,37.4,136.9,83.79,13.91
408,Jalu,0,LY,1659581982,46,29.0331,21.5482,78.17,7.49
409,Lábrea,37,BR,1659582168,68,-7.2586,-64.7981,78.31,1.12
410,Yuzhnoural'sk,0,RU,1659582168,71,54.4418,61.2536,61.92,6.73
411,Gornopravdinsk,50,RU,1659581890,52,60.05,69.9,68.34,2.71
412,Vostok,99,RU,1659582169,51,46.4856,135.8833,80.02,4.99
413,Tungawan,55,PH,1659582169,72,7.5081,122.3711,85.03,3.89
414,Taksimo,100,RU,1659582169,48,56.3444,114.8794,71.33,6.15
415,Hoa Binh,97,VN,1659581978,66,20.8133,105.3383,90.84,2.44
416,Colquechaca,0,BO,1659582170,38,-18.6667,-66.0167,30.56,0.94
417,Ahipara,21,NZ,1659581657,77,-35.1667,173.1667,61.99,3.96
418,Elko,96,US,1659582170,23,41.0002,-115.5012,83.64,7.0
419,Ankazoabo,0,MG,1659582171,68,-22.2833,44.5167,62.49,3.11
420,Sola,18,VU,1659582171,73,-13.8833,167.55,81.36,12.26
421,Celestún,6,MX,1659582171,79,20.8667,-90.4,80.6,15.32
422,Leshukonskoye,36,RU,1659582172,71,64.8989,45.7622,58.05,4.72
423,Bubaque,100,GW,1659582172,84,11.2833,-15.8333,78.3,7.81
424,Turaif,0,SA,1659582134,21,31.6725,38.6637,84.33,11.36
425,Vardø,40,NO,1659581982,88,70.3705,31.1107,55.38,5.75
426,Mumbwa,0,ZM,1659581956,75,-14.9783,27.0619,55.78,5.97
427,Boende,78,CD,1659582173,94,-0.2167,20.8667,70.63,2.44
428,Carballo,100,ES,1659582173,92,43.213,-8.691,67.01,6.15
429,Taoudenni,7,ML,1659581945,37,22.6783,-3.9836,89.56,15.66
430,Bilibino,100,RU,1659581937,96,68.0546,166.4372,55.22,2.8
431,Gardenstown,100,GB,1659582174,1,57.671,-2.336,53.19,3.62
432,Qaanaaq,8,GL,1659582005,66,77.484,-69.3632,41.07,5.41
433,Sirte,0,LY,1659581983,67,31.2089,16.5887,78.87,9.48
434,Siderno,0,IT,1659582174,57,38.2779,16.302,76.33,6.02
435,Lander,0,US,1659582175,36,42.833,-108.7307,78.17,10.36
436,La Asuncion,100,VE,1659582175,74,11.0333,-63.8628,85.73,8.05
437,Vila,78,PT,1659582175,97,42.0304,-8.1588,56.28,4.79
438,Zelenogorskiy,100,RU,1659582176,70,55.0333,87.0,56.08,1.45
439,Tura,100,IN,1659581907,89,25.5198,90.2201,77.29,0.98
440,Gouré,15,NE,1659582176,76,13.9835,10.2704,73.02,5.46
441,Grøa,85,NO,1659582176,83,62.65,8.7167,58.78,3.42
442,Falam,78,MM,1659582177,75,22.9167,93.6833,73.22,2.46
443,Dudinka,87,RU,1659582177,49,69.4058,86.1778,63.63,5.57
444,Guane,11,CU,1659582177,86,22.2025,-84.0875,77.49,1.83
445,Gīdolē,98,ET,1659582178,78,5.65,37.3667,55.62,3.47
446,Yulara,0,AU,1659581957,30,-25.2406,130.9889,70.34,19.26
447,Ust-Maya,99,RU,1659582178,52,60.4167,134.5333,75.78,5.95
448,Caravelas,63,BR,1659582066,76,-17.7125,-39.2481,68.27,5.19
449,Naze,79,JP,1659581950,76,28.3667,129.4833,85.12,6.67
450,Salta,34,AR,1659582179,79,-24.7859,-65.4117,52.57,1.99
451,Mauá,6,BR,1659582171,85,-23.6678,-46.4614,66.36,4.68
452,Kieta,72,PG,1659581970,65,-6.2167,155.6333,85.6,7.45
453,Opuwo,1,NA,1659582025,21,-18.0607,13.84,53.8,3.87
454,Mbuji-Mayi,13,CD,1659582179,41,-6.15,23.6,71.38,0.83
455,Nebug,0,RU,1659582180,81,44.1714,39.0036,69.93,3.06
456,Kilindoni,18,TZ,1659582180,76,-7.9139,39.6668,74.41,10.89
457,Uusikaupunki,89,FI,1659582181,90,60.8004,21.4084,65.16,15.84
458,Bārmer,93,IN,1659582067,65,25.75,71.3833,84.24,5.97
459,Singkawang,100,ID,1659582181,92,0.9,109.0,76.82,1.54
460,Bariloche,93,AR,1659582012,59,-41.1456,-71.3082,41.25,8.59
461,Kānker,100,IN,1659582181,76,20.2719,81.4931,81.48,0.45
462,Cholul Cantón,94,MX,1659582182,80,21.0167,-89.2833,80.62,3.02
463,Erdenet,16,MN,1659582182,70,49.0333,104.0833,65.26,1.32
464,Camacha,75,PT,1659581953,68,33.0833,-16.3333,67.42,13.8
465,Limeira,4,BR,1659582183,52,-22.5647,-47.4017,66.16,3.67
466,São José da Coroa Grande,100,BR,1659582184,85,-8.8978,-35.1478,75.58,11.92
467,Quang Ngai,93,VN,1659581993,61,15.1167,108.8,86.54,3.4
468,Bīrpur,100,IN,1659582184,90,26.5167,87.0167,79.65,6.91
469,Antalaha,23,MG,1659582185,85,-14.9003,50.2788,65.97,7.05
470,Scarborough,100,GB,1659582017,86,54.2797,-0.4044,58.78,3.0
471,Koungou,75,YT,1659582185,78,-12.7336,45.2042,74.91,13.8
472,Tautira,33,PF,1659582186,80,-17.7333,-149.15,76.62,26.51
473,High Level,96,CA,1659582186,57,58.5169,-117.136,62.47,6.11
474,Zhangye,34,CN,1659582187,38,38.9342,100.4517,85.23,4.36
475,KwaDukuza,11,ZA,1659582187,59,-29.3282,31.2895,60.35,3.71
476,Arcata,0,US,1659582187,81,40.8665,-124.0828,65.35,11.5
477,Mahibadhoo,100,MV,1659582015,77,3.7833,72.9667,81.61,20.89
478,Qaqortoq,100,GL,1659581902,98,60.7167,-46.0333,46.72,18.34
479,Altukhovo,68,RU,1659582188,91,52.67,34.36,60.71,7.76
480,Pedernales,100,DO,1659582188,67,18.0384,-71.744,80.76,5.01
481,Casa Nova,74,BR,1659582189,59,-9.4167,-41.1333,75.97,19.35
482,Denizli Province,0,TR,1659582030,58,37.8402,29.0698,73.99,2.3
483,Aguilar de la Frontera,0,ES,1659582189,44,37.5143,-4.6554,72.0,1.92
484,Örnsköldsvik,100,SE,1659581927,100,63.2909,18.7153,61.75,9.22
485,Guamúchil,0,MX,1659582155,69,25.4667,-108.1,86.76,2.84
486,Klyuchi,2,RU,1659582055,48,52.2667,79.1667,66.29,12.17
487,Emerald,0,AU,1659582190,45,-23.5333,148.1667,77.72,13.09
488,Mae Sai,75,TH,1659582191,79,20.4335,99.8762,82.13,2.19
489,Togul,3,RU,1659582191,48,53.465,85.9128,64.11,4.81
490,Kokstad,20,ZA,1659582191,77,-30.5472,29.4241,47.26,4.56
491,Pilar,99,BR,1659581951,94,-9.5972,-35.9567,73.33,6.8
492,Korla,7,CN,1659582022,22,41.7597,86.1469,89.1,2.26
493,Alofi,31,NU,1659582010,69,-19.0595,-169.9187,76.33,25.7
494,Shchors,41,UA,1659582192,95,51.8186,31.945,59.43,7.85
495,Biak,12,ID,1659582192,70,-0.9131,122.8766,81.9,8.34
496,Vestmannaeyjar,17,IS,1659581943,75,63.4427,-20.2734,47.41,19.35
497,Hervey Bay,0,AU,1659582193,76,-25.2986,152.8535,68.0,9.46
498,Lensk,100,RU,1659582193,58,60.7253,114.9278,67.19,9.98
499,Ushibukamachi,51,JP,1659582194,75,32.1906,130.0228,84.31,5.99
500,Verkhnevilyuysk,98,RU,1659581991,58,63.4453,120.3167,60.01,8.21
501,Matagami,100,CA,1659582194,94,49.7502,-77.6328,66.31,13.8
502,Mulchén,19,CL,1659582195,96,-37.7167,-72.2333,39.18,3.65
503,Dawei,100,MM,1659582195,91,14.0833,98.2,77.9,4.38
504,Moose Jaw,16,CA,1659581897,77,50.4001,-105.5344,66.45,11.5
505,Petropavlovsk-Kamchatskiy,40,RU,1659581832,49,53.0452,158.6483,68.59,4.47
506,Malbork,75,PL,1659581989,67,54.0359,19.0266,69.12,7.38
507,Pemba,0,MZ,1659582196,80,-12.974,40.5178,71.42,7.09
508,Vila do Maio,88,CV,1659582196,84,15.1333,-23.2167,77.79,8.75
509,Lodwar,80,KE,1659582197,53,3.1191,35.5973,78.08,14.56
510,Tabou,100,CI,1659581987,84,4.423,-7.3528,73.83,8.52
511,College,42,US,1659582111,42,64.8569,-147.8028,75.0,5.37
512,Hambantota,75,LK,1659581953,89,6.1241,81.1185,79.14,11.5
513,Saint-Leu,7,RE,1659582197,75,-21.15,55.2833,65.26,2.82
514,Neya,88,RU,1659582198,70,58.2972,43.8681,64.6,1.16
515,Denpasar,40,ID,1659581911,74,-8.65,115.2167,82.06,12.66
516,Itarema,23,BR,1659582034,88,-2.9248,-39.9167,74.66,9.98
517,Esim,65,GH,1659582198,77,4.8699,-2.2405,72.43,8.25
518,Lewistown,0,US,1659582199,100,40.5992,-77.5714,77.74,0.0
519,Zacualtipán,28,MX,1659582199,93,20.65,-98.6,59.86,2.39
520,Manaíra,100,BR,1659582199,95,-7.7061,-38.1544,65.03,6.98
521,Arlit,88,NE,1659582200,37,18.7369,7.3853,91.18,9.37
522,Ternate,18,ID,1659582200,72,0.8,127.4,83.55,8.68
523,Chipinge,0,ZW,1659582135,80,-20.1883,32.6236,51.66,2.51
524,Brae,100,GB,1659582044,74,60.3964,-1.353,51.06,9.93
525,Ginir,86,ET,1659582201,81,7.1333,40.7,56.3,12.35
526,Bonfim,67,BR,1659582201,87,3.0833,-59.95,75.42,3.44
527,Mbalmayo,100,CM,1659582201,88,3.5167,11.5,67.96,2.64
528,Bayir,0,TR,1659582202,49,37.2687,28.2167,64.92,3.11
529,Khovd,100,MN,1659581889,36,48.0056,91.6419,71.01,2.24
530,Kiryat Gat,7,IL,1659582073,100,31.61,34.7642,79.39,0.81
531,Bijie,100,CN,1659582202,77,27.3125,105.2942,74.59,3.8
532,Dubbo,100,AU,1659582203,94,-32.25,148.6167,59.13,20.71
533,Nanchong,1,CN,1659582203,57,30.7951,106.0847,92.48,4.05
534,Nieuw Amsterdam,60,SR,1659582203,89,5.8833,-55.0833,78.03,7.96
535,Sept-Îles,100,CA,1659582204,82,50.2001,-66.3821,61.05,1.01
536,Flinders,100,AU,1659581917,79,-34.5833,150.8552,69.06,3.0
537,Alappuzha,100,IN,1659582204,95,9.49,76.3264,75.99,30.22
538,Kudahuvadhoo,100,MV,1659582205,79,2.6708,72.8944,80.55,17.43
539,Walvis Bay,29,NA,1659582205,89,-22.9575,14.5053,52.09,5.08
540,Grindavik,20,IS,1659582108,81,63.8424,-22.4338,45.07,13.8
541,Ljungby,16,SE,1659582206,96,56.8332,13.9408,62.17,5.14
542,Bay-Khaak,73,RU,1659582206,60,51.1667,94.5,65.55,4.99
543,São João da Barra,0,BR,1659581878,86,-21.6403,-41.0511,67.73,1.34
544,Vinces,95,EC,1659582206,80,-1.55,-79.7333,73.6,3.18
545,Agadir,7,MA,1659582207,65,30.4202,-9.5982,68.45,1.32
546,Sault Ste. Marie,40,CA,1659582207,83,46.5168,-84.3333,70.36,6.91
547,Sisimiut,100,GL,1659582081,89,66.9395,-53.6735,45.1,1.34
548,Beira,0,MZ,1659582207,88,-19.8436,34.8389,63.84,3.74
549,Pāsighāt,100,IN,1659582208,86,28.0667,95.3333,83.77,2.42
550,Le Mans,75,FR,1659582208,68,48.0,0.2,73.33,6.91
551,Itamarandiba,0,BR,1659582192,73,-17.8572,-42.8589,57.34,3.04
552,Nelson Bay,98,AU,1659582209,78,-32.7167,152.15,69.12,5.99
553,Dzhebariki-Khaya,89,RU,1659582209,45,62.2167,135.8,80.74,3.96
554,Kavieng,100,PG,1659581951,73,-2.5744,150.7967,83.97,15.52
555,Teuchitlán,80,MX,1659582210,75,20.6833,-103.8667,70.93,3.6
556,Oudtshoorn,96,ZA,1659582210,89,-33.5907,22.2014,54.12,1.72
557,Buala,23,SB,1659582210,70,-8.145,159.5921,84.24,8.75
558,Eskişehir,0,TR,1659582211,82,39.7767,30.5206,62.51,3.44
559,Paraná,100,AR,1659582097,90,-31.732,-60.5238,56.55,10.33
560,Meridian,7,US,1659582103,35,43.6121,-116.3915,90.03,5.75
561,Chërnaya Kholunitsa,70,RU,1659582211,73,58.8511,51.7154,64.54,1.3
562,Tazovsky,97,RU,1659582146,58,67.4667,78.7,62.4,6.73
563,Manavālakurichi,99,IN,1659582212,90,8.1333,77.3,76.6,21.88
564,Usinsk,66,RU,1659582212,73,65.9939,57.5281,65.66,10.31
565,Arandis,61,NA,1659582212,68,-22.4167,14.9667,49.3,2.59
566,Westport,1,US,1659582018,89,41.1415,-73.3579,77.27,4.0
567,Fairbanks,0,US,1659581702,42,64.8378,-147.7164,74.08,9.22
568,Cavalcante,0,BR,1659582213,39,-13.7975,-47.4583,67.69,4.12
569,Dauriya,100,RU,1659582213,87,49.9333,116.8667,69.69,5.86
570,Trindade,17,BR,1659582214,42,-16.6494,-49.4889,69.55,5.75
571,Cayenne,75,GF,1659582214,1,4.9333,-52.3333,82.09,0.0
572,Penzance,100,GB,1659582214,76,50.1186,-5.5371,57.88,17.13
573,Beitbridge,3,ZW,1659582215,68,-22.2167,30.0,59.67,3.29
574,Sinop Province,0,TR,1659582215,88,41.7711,34.8709,61.9,2.68
575,Calvinia,5,ZA,1659582215,97,-31.4707,19.776,45.0,3.65
576,Kupang,74,ID,1659582216,53,-10.1667,123.5833,83.88,8.95
577,Coos Bay,0,US,1659582216,88,43.3665,-124.2179,65.32,6.91
578,Dzemul,69,MX,1659582216,77,21.2,-89.3,80.67,3.0
